stop_id,stop_code,stop_name,stop_desc,stop_lat,stop_lon,stop_elevation,zone_id,stop_url,location_type,parent_station,platform_code,ch_station_long_name,ch_station_synonym1,ch_station_synonym2,ch_station_synonym3,ch_station_synonym4
8530004,,La Robella,,46.875983,6.548731,1222,,,0,,,,,,,
8530005,,Buttes TBR,,46.886187,6.551344,770,,,0,,,,,,,
8530014,,Schwarzsee / Lac-Noir GRK,,46.669266,7.288322,1044,,,0,,,,,,,
8530017,,Riggisalp,,46.658919,7.293655,1494,,,0,,,,,,,
8530021,,Charmey (Gruyère) (télécabine),,46.618696,7.168968,874,,,0,,,,,,,
8530022,,Vounetse,,46.626022,7.207136,1610,,,0,,,,,,,
8530032,,Rougemont BDGAG,,46.485702,7.208494,971,,,0,,,,,,,
8530038,,Les Diablerets TDI,,46.350074,7.160317,1192,,,0,,,,,,,
8530039,,Col-du-Pillon,,46.354143,7.205312,1555,,,0,,,,,,,
8530040,,La Barboleuse TVG,,46.283746,7.076852,1219,,,0,,,,,,,
8530041,,Les Chaux TVG,,46.295085,7.104614,1774,,,0,,,,,,,
8530042,,Villars TVG,,46.303653,7.054965,1252,,,0,,,,,,,
8530043,,Roc-d'Orsay,,46.322088,7.063911,1952,,,0,,,,,,,
8530054,,Plan-du-Croix TPCT,,46.305601,6.851095,1348,,,0,,,,,,,
8530055,,Tête-du-Tronchey,,46.292246,6.853615,1898,,,0,,,,,,,
8530056,,Plan-du-Croix TPCJ,,46.305533,6.850123,1336,,,0,,,,,,,
8530057,,La Jorette TPCJ,,46.304197,6.857873,1633,,,0,,,,,,,
8530070,,Morgins TMLF,,46.236756,6.858141,1269,,,0,,,,,,,
8530071,,La Foilleuse TMLF,,46.225068,6.861234,1819,,,0,,,,,,,
8530078,,Les Crosets TPS,,46.183878,6.834033,1676,,,0,,,,,,,
8530079,,Pointe-des-Mossettes TPS,,46.192081,6.815626,2252,,,0,,,,,,,
8530084,,Dorénaz TDCh,,46.150393,7.044333,454,,,0,,,,,,,
8530085,,Champex-d'Alesse,,46.148195,7.059208,1127,,,0,,,,,,,
8530087,,Champex (télésiège),,46.031456,7.106592,1485,,,0,,,,,,,
8530088,,La Breya,,46.021677,7.103217,2184,,,0,,,,,,,
8530093,,Bruson (télésiège),,46.063238,7.215955,1060,,,0,,,,,,,
8530094,,La Côt TBLC,,46.062421,7.199457,1549,,,0,,,,,,,
8530095,,Verbier TV,,46.093622,7.233674,1526,,,0,,,,,,,
8530096,,Croix-des-Ruinettes,,46.091236,7.252883,2192,,,0,,,,,,,
8530097,,Les Attelas,,46.099572,7.268371,2725,,,0,,,,,,,
8530098,,Mont-Gelé,,46.096466,7.278816,2994,,,0,,,,,,,
8530099,,Tortin TV,,46.113438,7.304208,2064,,,0,,,,,,,
8530100,,Col-de-Chassoure TV,,46.104032,7.279143,2761,,,0,,,,,,,
8530101,,Col-des-Gentianes TV,,46.085100,7.302028,2912,,,0,,,,,,,
8530102,,Mont-Fort TDN,,46.080108,7.318290,3319,,,0,,,,,,,
8530103,,La Chaux VS,,46.079992,7.270320,2273,,,0,,,,,,,
8530104,,Les Creux TV,,46.103825,7.224803,1600,,,0,,,,,,,
8530105,,Savoleyres,,46.122362,7.218986,2348,,,0,,,,,,,
8530106,,La Tzoumaz,,46.144716,7.233080,1537,,,0,,,,,,,
8530107,,Riddes TRI,,46.171087,7.221495,500,,,0,,,,,,,
8530108,,Haute-Nendaz TDN,,46.179917,7.291209,1400,,,0,,,,,,,
8530109,,Tracouet TDN,,46.161708,7.283232,2200,,,0,,,,,,,
8530113,,Super-Nendaz (Siviez),,46.134942,7.315670,1729,,,0,,,,,,,
8530115,,Tortin TDN,,46.113654,7.304336,2039,,,0,,,,,,,
8530116,,Combatzeline TDN,,46.140187,7.333646,2249,,,0,,,,,,,
8530119,,Veysonnaz (télécabine),,46.195635,7.342787,1342,,,0,,,,,,,
8530120,,Thyon TVT,,46.179946,7.366721,2142,,,0,,,,,,,
8530121,,Mayens-de-l'Hôpital,,46.196909,7.362229,1442,,,0,,,,,,,
8530124,,Les Collons TCE,,46.180218,7.386534,1878,,,0,,,,,,,
8530125,,L'Ethérolla,,46.167030,7.368408,2413,,,0,,,,,,,
8530127,,Dixence TCLD,,46.084530,7.403368,2136,,,0,,,,,,,
8530128,,Lac-des-Dix,,46.080993,7.397373,2376,,,0,,,,,,,
8530129,,Lana TLLM,,46.121519,7.476990,1400,,,0,,,,,,,
8530130,,La Meina TLLM,,46.120994,7.455567,2133,,,0,,,,,,,
8530134,,Vercorin CBV,,46.256786,7.526285,1341,,,0,,,,,,,
8530136,,Vercorin TVCM,,46.254027,7.534113,1320,,,0,,,,,,,
8530137,,Crêt-du-Midi,,46.229464,7.529663,2327,,,0,,,,,,,
8530139,,Grimentz TGB,,46.176211,7.573473,1606,,,0,,,,,,,
8530140,,Bendolla TGB,,46.180564,7.558306,2136,,,0,,,,,,,
8530144,,Zinal (télépherique),,46.138304,7.624080,1663,,,0,,,,,,,
8530145,,Sorebois,,46.144417,7.603730,2438,,,0,,,,,,,
8530146,,Chandolin FLC,,46.247928,7.604393,1936,,,0,,,,,,,
8530147,,Tsapé,,46.251681,7.620795,2468,,,0,,,,,,,
8530149,,Ovronnaz TOJ,,46.204606,7.160687,1350,,,0,,,,,,,
8530150,,Jorasse,,46.203758,7.141970,1850,,,0,,,,,,,
8530151,,Anzère TAPM,,46.295258,7.394883,1526,,,0,,,,,,,
8530152,,Pas-de-Maimbré,,46.312228,7.385834,2362,,,0,,,,,,,
8530159,,Crans-s.-S. CMA,,46.308648,7.467331,1507,,,0,,,,,,,
8530161,,Cry-d'Er CMA (Crans-s.-S.),,46.334814,7.477708,2257,,,0,,,,,,,
8530163,,Montana CMA,,46.312927,7.479316,1531,,,0,,,,,,,
8530164,,Cry-d'Er CMA (Bellalui),,46.334498,7.478877,2258,,,0,,,,,,,
8530167,,Montana (Zaumiau),,46.320610,7.498576,1506,,,0,,,,,,,
8530169,,Cabane-des-Violettes,,46.342469,7.498301,2224,,,0,,,,,,,
8530173,,Glacier-de-la-Plaine-Morte,,46.369910,7.488935,2887,,,0,,,,,,,
8530179,,Albinenleitern LLAT,,46.361020,7.622914,1554,,,0,,,,,,,
8530180,,Turtmann LTUO,,46.298588,7.701483,625,,,0,,,,,,,
8530181,,Unterems,,46.292810,7.699171,998,,,0,,,,,,,
8530182,,Oberems,,46.282968,7.695465,1335,,,0,,,,,,,
8530183,,Gampel LGJ,,46.315496,7.739291,640,,,0,,,,,,,
8530184,,Jeizinen LGJ,,46.326298,7.722795,1525,,,0,,,,,,,
8530187,,Raron (Talstation Eischoll),,46.303173,7.800799,638,,,0,,,,,,,
8530188,,Eischoll (Bergstation),,46.293969,7.783802,1230,,,0,,,,,,,
8530192,,Unterbäch (Talstation Brand),,46.283920,7.801293,1232,,,0,,,,,,,
8530193,,Brand (Unterbäch),,46.274638,7.797872,1590,,,0,,,,,,,
8530194,,Visperterminen SVG,,46.258347,7.904291,1340,,,0,,,,,,,
8530195,,Giw,,46.255551,7.923072,1962,,,0,,,,,,,
8530196,,Kalpetran (Seilbahn)Talstation,,46.214318,7.836816,916,,,0,,,,,,,
8530197,,Embd (Seilbahn) Bergstation,,46.216167,7.827733,1420,,,0,,,,,,,
8530198,,Embd (Luftseilbahn),,46.215003,7.826027,1420,,,0,,,,,,,
8530199,,Schalb,,46.217023,7.816711,1913,,,0,,,,,,,
8530200,,Grächen LGH,,46.196652,7.841506,1618,,,0,,,,,,,
8530206,,Zermatt ZBAG-lz,,46.014772,7.742870,1631,,,0,,,,,,,
8530207,,Furi,,46.001739,7.732278,1852,,,0,,,,,,,
8530208,,Schwarzsee VS,,45.991757,7.709510,2581,,,0,,,,,,,
8530210,,Klein Matterhorn,,45.939047,7.729621,3818,,,0,,,,,,,
8530211,,Trockener Steg,,45.971396,7.722220,2927,,,0,,,,,,,
8530214,,Sunnegga ZBAG-lsu,,46.016826,7.770474,2290,,,0,,,,,,,
8530215,,Rothorn VS,,46.021538,7.797399,3104,,,0,,,,,,,
8530217,,Blauherd ZBAG-lsu,,46.016780,7.785851,2577,,,0,,,,,,,
8530226,,Hannig,,46.114947,7.916767,2340,,,0,,,,,,,
8530227,,Saas-Grund BHAG,,46.128131,7.938541,1560,,,0,,,,,,,
8530228,,Hohsaas,,46.140022,7.989094,3105,,,0,,,,,,,
8530230,,Kreuzboden,,46.138440,7.964309,2399,,,0,,,,,,,
8530231,,Saas-Almagell (Furggstalden),,46.092259,7.957853,1683,,,0,,,,,,,
8530232,,Furggstalden (Saas-Almagell),,46.089642,7.963413,1902,,,0,,,,,,,
8530233,,Ried-Brig LRR,,46.313843,8.025878,1040,,,0,,,,,,,
8530234,,Rosswald,,46.304373,8.040937,1821,,,0,,,,,,,
8530235,,Blatten b. Naters (Belalpbahn),,46.358923,7.984280,1322,,,0,,,,,,,
8530236,,Erich/Tschuggen,,46.364837,7.979766,1446,,,0,,,,,,,
8530237,,Mörel ARBAG,,46.356603,8.046011,802,,,0,,,,,,,
8530240,,Riederalp ARBAG (Hohfluh),,46.377735,8.027024,1943,,,0,,,,,,,
8530241,,Moosfluh,,46.395858,8.048218,2394,,,0,,,,,,,
8530242,,Hohfluh ARBAG,,46.386142,8.027843,2229,,,0,,,,,,,
8530243,,Betten BAB,,46.371340,8.076795,849,,,0,,,,,,,
8530244,,Schönbiel (Bettmeralp),,46.403676,8.079216,2290,,,0,,,,,,,
8530245,,Bettmergrat,,46.410300,8.077123,2650,,,0,,,,,,,
8530250,,Fürgangen LFüB,,46.411939,8.152317,1254,,,0,,,,,,,
8530251,,Bellwald LFüB,,46.423014,8.160658,1614,,,0,,,,,,,
8530252,,Bellwald SBR,,46.427796,8.161294,1613,,,0,,,,,,,
8530253,,Richinen,,46.441381,8.166797,2078,,,0,,,,,,,
8530254,,Furggulti,,46.453208,8.162960,2558,,,0,,,,,,,
8530268,,Lenk BLB,,46.453014,7.437014,1097,,,0,,,,,,,
8530270,,Betelberg BLB,,46.428874,7.408941,1947,,,0,,,,,,,
8530277,,Lenk (Talstation Metschstand),,46.442038,7.457041,1073,,,0,,,,,,,
8530283,,Schönried BDGAG-she,,46.503573,7.293110,1231,,,0,,,,,,,
8530284,,Horneggli,,46.493613,7.313560,1773,,,0,,,,,,,
8530285,,Rellerligrat,,46.511159,7.263356,1834,,,0,,,,,,,
8530288,,Gstaad BDGAG-lgw,,46.463640,7.284860,1051,,,0,,,,,,,
8530290,,Höhi Wispile,,46.440163,7.292578,1911,,,0,,,,,,,
8530291,,Gstaad BDGAG-lge,,46.467531,7.282076,1041,,,0,,,,,,,
8530292,,Eggli (Gstaad) BDGAG-lge,,46.463253,7.265881,1559,,,0,,,,,,,
8530297,,Oldenegg,,46.351436,7.238152,1930,,,0,,,,,,,
8530298,,Kiental SKRa,,46.585497,7.723514,928,,,0,,,,,,,
8530299,,Ramslauenen,,46.579633,7.708363,1411,,,0,,,,,,,
8530301,,Kandersteg (Luftseilbahn),,46.489230,7.661066,1188,,,0,,,,,,,
8530302,,Allmenalp,,46.492292,7.649447,1732,,,0,,,,,,,
8530304,,Elsigbach LEE,,46.529093,7.606475,1302,,,0,,,,,,,
8530305,,Elsigenalp,,46.522546,7.622497,1802,,,0,,,,,,,
8530308,,Adelboden Dorf (Silleren),,46.490366,7.556641,1351,,,0,,,,,,,
8530309,,Adelboden Oey (Sillerenbahn),,46.487888,7.560426,1264,,,0,,,,,,,
8530311,,Sillerenbühl,,46.471787,7.518075,1973,,,0,,,,,,,
8530312,,Unter dem Birg BEAG,,46.459141,7.566427,1407,,,0,,,,,,,
8530313,,Engstligenalp,,46.449400,7.565142,1971,,,0,,,,,,,
8530314,,Adelboden Geils (Hahnenmoos),,46.456957,7.512730,1707,,,0,,,,,,,
8530315,,Hahnenmoos,,46.453333,7.495428,1943,,,0,,,,,,,
8530320,,Grindelwald LGP,,46.623173,8.046928,1027,,,0,,,,,,,
8530321,,Pfingstegg,,46.617382,8.056445,1387,,,0,,,,,,,
8530336,,Isenfluh (Luftseilbahn),,46.620364,7.895225,1090,,,0,,,,,,,
8530337,,Sulwald,,46.623415,7.888069,1526,,,0,,,,,,,
8530343,,Meiringen (Luftseilbahn),,46.728340,8.192110,595,,,0,,,,,,,
8530344,,Hasliberg Reuti (Gondelbahn),,46.733031,8.209001,1060,,,0,,,,,,,
8530345,,Bidmi,,46.744267,8.219513,1425,,,0,,,,,,,
8530346,,Mägisalp,,46.749285,8.236756,1705,,,0,,,,,,,
8530347,,Planplatten,,46.737679,8.257232,2229,,,0,,,,Alpen Tower,,,
8530349,,Hasliberg Twing (Gondelbahn),,46.745188,8.195054,1160,,,0,,,,,,,
8530351,,Marbach LMM,,46.850038,7.895557,874,,,0,,,,,,,
8530352,,Marbachegg,,46.835216,7.906049,1476,,,0,,,,,,,
8530353,,Sörenberg LSöR,,46.820643,8.033942,1166,,,0,,,,,,,
8530354,,Rossweid,,46.808831,8.027169,1468,,,0,,,,,,,
8530364,,Distelboden SMF-ldb,,46.771391,8.281377,1916,,,0,,,,,,,
8530365,,Bonistock SMF-ldb,,46.777795,8.290028,2160,,,0,,,,,,,
8530368,,Engelberg (Fürenalp Bahn),,46.801750,8.449225,1002,,,0,,,,,,,
8530369,,Fürenalp,,46.801130,8.468262,1850,,,0,,,,,,,
8530371,,Trübsee (Jochpass),,46.791248,8.387676,1802,,,0,,,,,,,
8530372,,Jochpass,,46.778635,8.386695,2213,,,0,,,,,,,
8530373,,Engstlensee,,46.775367,8.370649,1943,,,0,,,,,,,
8530374,,Fell,,46.883380,8.421407,913,,,0,,,,,,,
8530375,,Chrüzhütte,,46.871825,8.435351,1724,,,0,,,,,,,
8530376,,Fellboden,,46.881975,8.421513,900,,,0,,,,,,,
8530377,,Bannalpsee,,46.870183,8.425469,1587,,,0,,,,,,,
8530385,,Emmetten (Niederbauenbahn),,46.955881,8.519012,762,,,0,,,,,,,
8530386,,Niederbauen,,46.946383,8.534860,1576,,,0,,,,,,,
8530387,,Küssnacht am Rigi LKüS,,47.076100,8.439886,452,,,0,,,,,,,
8530388,,Weggis (Luftseilbahn),,47.034091,8.440733,435,,,0,,,,,,,
8530391,,Stoos(Sesselbahn Fronalpstock),,46.980616,8.662617,1275,,,0,,,,,,,
8530392,,Fronalpstock,,46.969592,8.637408,1735,,,0,,,,,,,
8530393,,Stoos Bergstat. (Luftseilb),,46.982183,8.664164,1300,,,0,,,,,,,
8530400,,Ried (Muotathal) (Seilbahn),,46.984098,8.724245,582,,,0,,,,,,,
8530401,,Illgau (Luftseilbahn),,46.986920,8.723642,828,,,0,,,,,,,
8530402,,Brunni SZ LBH,,47.041999,8.703090,1105,,,0,,,,,,,
8530403,,Holzegg,,47.028835,8.698385,1410,,,0,,,,,,,
8530404,,Oberiberg SOSt,,47.033842,8.772017,1068,,,0,,,,,,,
8530405,,Steinboden,,47.014574,8.771065,1495,,,0,,,,,,,
8530406,,Weglosen LWS,,47.020137,8.808958,1048,,,0,,,,,,,
8530407,,Seebli SSKS,,47.011041,8.789247,1473,,,0,,,,,,,
8530408,,Klein Sternen,,46.999910,8.797869,1818,,,0,,,,,,,
8530409,,Seebli SSSp,,47.010150,8.785489,1473,,,0,,,,,,,
8530410,,Spirstock,,47.001183,8.771430,1765,,,0,,,,,,,
8530411,,Sattel SHAG,,47.078405,8.634377,780,,,0,,,,,,,
8530412,,Mostelberg,,47.067465,8.649867,1190,,,0,,,,,,,
8530413,,Herrenboden,,47.063079,8.656337,1190,,,0,,,,,,,
8530414,,Attinghausen (Luftseilbahn),,46.861331,8.628832,470,,,0,,,,,,,
8530415,,Brüsti,,46.843212,8.607008,1530,,,0,,,,,,,
8530418,,Flüelen LFE,,46.893478,8.627575,436,,,0,,,,,,,
8530420,,Eggberge,,46.901568,8.644634,1452,,,0,,,,,,,
8530421,,Brügg (Bürglen UR) (Seilbahn),,46.877210,8.682056,648,,,0,,,,,,,
8530423,,Biel (Kinzig),,46.895367,8.708868,1627,,,0,,,,,,,
8530424,,Schattdorf LSH,,46.865376,8.655654,490,,,0,,,,,,,
8530425,,Haldi,,46.864355,8.670334,1086,,,0,,,,,,,
8530426,,Bristen (Talstation),,46.766525,8.711515,810,,,0,,,,,,,
8530427,,Golzern (Bergstation),,46.774953,8.721352,1400,,,0,,,,,,,
8530434,,Intschi (Luftseilbahn Arnisee),,46.760712,8.649626,627,,,0,,,,,,,
8530435,,Arnisee,,46.769201,8.642340,1372,,,0,,,,,,,
8530450,,Orselina CIT,,46.175987,8.791980,406,,,0,,,,,,,
8530451,,Cardada,,46.190735,8.781970,1340,,,0,,,,,,,
8530455,,Intragna (Funivia),,46.179111,8.700826,342,,,0,,,,,,,
8530457,,S. Carlo FSCR,,46.410043,8.529776,938,,,0,,,,,,,
8530458,,Robiei,,46.443208,8.512393,1905,,,0,,,,,,,
8530459,,Rivera,,46.127087,8.919582,472,,,0,,,,,,,
8530460,,Alpe Foppa,,46.116730,8.893413,1534,,,0,,,,,,,
8530464,,Miglieglia (Funivia),,46.023769,8.856234,738,,,0,,,,,,,
8530465,,Monte Lema,,46.040735,8.834854,1553,,,0,,,,,,,
8530477,,Schutt SSA,,47.285311,8.997100,840,,,0,,,,,,,
8530478,,Atzmännig SSA,,47.279352,9.010608,1186,,,0,,,,,,,
8530483,,Rietbach,,47.228718,9.153237,1121,,,0,,,,,,,
8530484,,Alt St. Johann (Sellamattbahn),,47.193356,9.288858,894,,,0,,,,,,,
8530485,,Alp Sellamatt,,47.182151,9.296336,1395,,,0,,,,,,,
8530486,,Wildhaus BBWAG,,47.198909,9.342263,1098,,,0,,,,,,,
8530487,,Oberdorf SG BBWAG,,47.192250,9.345075,1235,,,0,,,,,,,
8530488,,Gamsalp,,47.172693,9.339443,1761,,,0,,,,,,,
8530489,,Wildhaus SWG,,47.207511,9.356855,1098,,,0,,,,,,,
8530490,,Gamplüt,,47.213039,9.343677,1357,,,0,,,,,,,
8530491,,Amden SBA,,47.149784,9.143270,908,,,0,,,,,,,
8530492,,Niederschlag,,47.161667,9.146405,1295,,,0,,,,,,,
8530493,,Tannenbodenalp LUFAG,,47.093794,9.280887,1390,,,0,,,,,,,
8530494,,Tannenboden (Maschgenkammbahn),,47.092063,9.280551,1398,,,0,,,,,,,
8530495,,Maschgenkamm,,47.069875,9.253451,2003,,,0,,,,,,,
8530496,,Tannenheim STP,,47.089144,9.303636,1215,,,0,,,,,,,
8530497,,Prodalp,,47.080374,9.290120,1569,,,0,,,,,,,
8530498,,Prodkamm,,47.080418,9.290200,1942,,,0,,,,,,,
8530499,,Wangs Talstation Pizolbahnen,,47.028822,9.432209,536,,,0,,,,,,,
8530500,,Furt (Wangs),,47.002491,9.420445,1518,,,0,,,,,,,
8530503,,Bad Ragaz Talstat. Pizolbahnen,,47.017272,9.473526,488,,,0,,,Bad Ragaz (Talstation) Pizolbahnen,,,,
8530505,,Pardiel,,46.989532,9.464807,1606,,,0,,,,,,,
8530506,,Laufböden,,46.991565,9.414860,1843,,,0,,,,,,,
8530507,,Oberschan LHA,,47.097932,9.473375,695,,,0,,,,,,,
8530508,,Hotel Alvier,,47.090290,9.461847,975,,,0,,,,,,,
8530509,,Malbun SMS,,47.100712,9.610527,1600,,,0,,,,,,,
8530510,,Sareis,,47.102963,9.619475,1993,,,0,,,,,,,
8530513,,Filzbach SFH,,47.117855,9.127953,740,,,0,,,,,,,
8530514,,Habergschwänd,,47.104226,9.124808,1275,,,0,,,,,,,
8530515,,Niederurnen,,47.125049,9.046703,460,,,0,,,,,,,
8530516,,Morgenholz,,47.125534,9.020144,980,,,0,,,,,,,
8530517,,Kies LKM,,46.967982,9.090905,1030,,,0,,,,,,,
8530518,,Mettmen,,46.958678,9.095915,1607,,,0,,,,,,,
8530519,,Matt LMW,,46.960116,9.171469,847,,,0,,,,,,,
8530520,,Weissenberg,,46.962881,9.179575,1261,,,0,,,,,,,
8530521,,Elm SBE,,46.913586,9.162787,962,,,0,,,,,,,
8530522,,Aempächli,,46.921788,9.155250,1490,,,0,,,,,,,
8530524,,Niederschlacht,,46.937381,8.994666,1372,,,0,,,,,,,
8530527,,Malans (Älplibahn Talstation),,46.986196,9.569390,605,,,0,,,,,,,
8530528,,Aelpli,,47.012582,9.588488,1801,,,0,,,,,,,
8530531,,Fanas (Luftseilbahn),,46.986065,9.662445,907,,,0,,,,,,,
8530532,,Eggli (Fanas) (Luftseilbahn),,46.999571,9.689706,1700,,,0,,,,,,,
8530533,,Klosters BKM,,46.884509,9.875580,1191,,,0,,,,,,,
8530534,,Madrisa,,46.902167,9.864090,1887,,,0,,,,,,,
8530535,,Parsennhütte,,46.850498,9.825333,2211,,,0,,,,,,,
8530540,,Dörfji,,46.802577,9.896092,1806,,,0,,,,,,,
8530541,,Mitteltälli,,46.809420,9.918872,2491,,,0,,,,,,,
8530545,,Chur BCD,,46.847334,9.525764,595,,,0,,,,,,,
8530546,,Känzeli BCD,,46.838933,9.525582,1198,,,0,,,,,,,
8530547,,Foppa,,46.846464,9.267660,1419,,,0,,,,,,,
8530548,,Naraus,,46.860192,9.268927,1843,,,0,,,,,,,
8530552,,Crap Sogn Gion BFL,,46.835084,9.215654,2230,,,0,,,,,,,
8530553,,Crap Masegn (Vorab),,46.842334,9.180069,2490,,,0,,,,,,,
8530554,,Vorab Gletscher,,46.873481,9.181458,2570,,,0,,,,,,,
8530556,,Falera BFL,,46.802894,9.228639,1218,,,0,,,,,,,
8530557,,Curnius,,46.820244,9.232506,1646,,,0,,,,,,,
8530558,,Wali,,46.725014,9.108479,1709,,,0,,,,,,,
8530559,,Stein (Obersaxen),,46.726285,9.125463,2143,,,0,,,,,,,
8530562,,Valata/Obersaxen,,46.761493,9.138152,1250,,,0,,,,,,,
8530563,,Cuolm Sura (Valata),,46.749844,9.143361,1594,,,0,,,,,,,
8530566,,Belalp Chiematte,,46.369833,7.967496,2061,,,0,,,,,,,
8530568,,Vals SVGa,,46.609173,9.173302,1248,,,0,,,,,,,
8530569,,Gadastatt,,46.606003,9.151489,1818,,,0,,,,,,,
8530570,,Vella SVH,,46.717240,9.169450,1244,,,0,,,,,,,
8530571,,Triel,,46.724004,9.157107,1609,,,0,,,,,,,
8530572,,Hitzeggen,,46.735506,9.143693,2114,,,0,,,,,,,
8530573,,Disentis/Mustér BBD,,46.700949,8.841119,1130,,,0,,,,,,,
8530574,,Caischavedra (Disentis),,46.704496,8.815866,1850,,,0,,,,,,,
8530580,,Churwalden LHB,,46.778018,9.543880,1251,,,0,,,,,,,
8530581,,Alp Pradaschier,,46.783158,9.520239,1724,,,0,,,,,,,
8530582,,Churwalden (Talstation),,46.777142,9.541605,1230,,,0,,,,,,,
8530583,,Alp Stätz,,46.764683,9.531625,1929,,,0,,,,,,,
8530584,,Val Sporz,,46.725161,9.546252,1521,,,0,,,,,,,
8530585,,Tgantieni,,46.721229,9.531090,1745,,,0,,,,,,,
8530586,,Piz Scalottas,,46.721867,9.510925,2324,,,0,,,,,,,
8530587,,Feldis/Veulden SFM,,46.791652,9.440267,1472,,,0,,,,,,,
8530588,,Mutta,,46.796629,9.456057,1972,,,0,,,,,,,
8530589,,Savognin SB,,46.596509,9.591746,1207,,,0,,,,,,,
8530591,,Somtgant,,46.586525,9.554070,2092,,,0,,,,,,,
8530594,,Bergün/Bravuogn SBAD,,46.622443,9.750980,1372,,,0,,,,,,,
8530595,,Pros da Darlux,,46.623204,9.770606,1972,,,0,,,,,,,
8530596,,Pranzaira (Albigna),,46.358033,9.644197,1190,,,0,,,,,,,
8530597,,Albigna,,46.337895,9.645484,2100,,,0,,,,,,,
8530598,,Sils Maria LSMF,,46.432544,9.772923,1797,,,0,,,,,,,
8530599,,Furtschellas Mittelstation,,46.422325,9.783610,2302,,,0,,,,,,,
8530601,,Suvretta,,46.487500,9.817833,1936,,,0,,,,,,,
8530602,,Randolins,,46.491143,9.809341,2187,,,0,,,,,,,
8530603,,Krümmenschwil,,47.244030,9.168895,732,,,0,,,,,,,
8530604,,Celerina BEST-lcs,,46.512831,9.852970,1730,,,0,,,,,,,
8530605,,Pontresina SPL,,46.490917,9.906905,1774,,,0,,,,,,,
8530606,,Alp Languard,,46.487801,9.921891,2326,,,0,,,,,,,
8530607,,Ftan Fionas,,46.794893,10.245840,1678,,,0,,,,,,,
8530608,,Prui,,46.805523,10.251323,2068,,,0,,,,,,,
8530609,,Samnaun-Ravaisch (Bergbahn),,46.951236,10.375224,1775,,,0,,,,,,,
8530610,,Alp Trider Sattel,,46.970172,10.367265,2490,,,0,,,,,,,
8530671,,Oberdorf SO (Talstation),,47.235786,7.493274,655,,,0,,,,,,,
8530674,,Château-d'Oex TCPM/TPBM,,46.474525,7.134037,958,,,0,,,,,,,
8530675,,Les Marécottes TMSA,,46.111338,7.006306,1126,,,0,,,,,,,
8530676,,Le Châble TV,,46.078644,7.214626,821,,,0,,,,,,,
8530678,,Zweisimmen BDGAG,,46.551110,7.374449,951,,,0,,,,,,,
8530679,,Schönried BDGAG-rls,,46.504825,7.287218,1231,,,0,,,,,,,
8530681,,Niederrickenbach Talstation,,46.927772,8.397282,486,,,0,,,,,,,
8530682,,Emmetten BBE,,46.956843,8.513316,762,,,0,,,,,,,
8530683,,Kräbel LKR,,47.040353,8.529464,789,,,0,,,,,,,
8530684,,Davos Glaris BGR,,46.745429,9.780528,1454,,,0,,,,,,,
8530685,,St. Moritz Bad SMBB,,46.483509,9.832576,1772,,,0,,,,,,,
8530687,,Rigi Kaltbad,,47.043350,8.464949,1423,,,0,,,,,,,
8530688,,Riederalp West,,46.375950,8.026017,1914,,,0,,,,,,,
8530690,,Greich,,46.367153,8.039683,1362,,,0,,,,,,,
8530692,,Amsteg LAA,,46.774854,8.664819,522,,,0,,,,,,,
8530693,,Arni UR,,46.778030,8.651390,1300,,,0,,,,,,,
8530738,,Alp Darlux,,46.624462,9.779869,2265,,,0,,,,,,,
8530741,,Munt da San Murezzan,,46.504400,9.799781,2659,,,0,,,,,,,
8530745,,Innergsteig,,46.376223,7.280378,1210,,,0,,,,,,,
8530746,,Sanetsch-Stausee,,46.363109,7.295087,2062,,,0,,,,,,,
8530751,,Marcheuson TPS,,46.177677,6.840370,1941,,,0,,,,,,,
8530752,,Dieni (pendicularas),,46.669152,8.743566,1453,,,0,,,,,,,
8530753,,Milez,,46.666832,8.718078,1880,,,0,,,,,,,
8530757,,Metschstand,,46.444086,7.494416,2097,,,0,,,,,,,
8530758,,St. Jakob (Isenthal),,46.901672,8.522648,990,,,0,,,,,,,
8530759,,Gitschenen,,46.900216,8.500464,1540,,,0,,,,,,,
8530781,,Glattalp,,46.915064,8.873765,1871,,,0,,,,,,,
8530782,,Sahli (Glattalp Seilbahn),,46.913612,8.846523,1149,,,0,,,,,,,
8530785,,Laax GR BFL,,46.820197,9.263307,1102,,,0,,,,,,,
8530797,,Gersau Gschwend,,47.012970,8.540666,1006,,,0,,,,,,,
8530798,,Burggeist (Rigi Scheidegg),,47.025313,8.524607,1561,,,0,,,,,,,
8530802,,Bettmeralp BAB (Schönbiel),,46.391464,8.067098,1957,,,0,,,,,,,
8530803,,Bettmeralp BAB (Bettmerhorn),,46.392208,8.064364,1957,,,0,,,,,,,
8530804,,Verdasio (Funivia),,46.165188,8.648723,534,,,0,,,,,,,
8530805,,Saas-Fee (Alpin Express),,46.105939,7.928095,1798,,,0,,,,,,,
8530806,,Saas-Fee (Felskinn),,46.099740,7.920022,1798,,,0,,,,,,,
8530807,,Saas-Fee (Hannig),,46.110161,7.927318,1798,,,0,,,,,,,
8530808,,Riederalp ARBAG (Moosfluh),,46.381257,8.039865,1895,,,0,,,,,,,
8530809,,Frümsen (Luftseilbahn),,47.247697,9.470492,500,,,0,,,,,,,
8530810,,Stauberen,,47.260574,9.453536,1744,,,0,,,,,,,
8530819,,Illgau Dorf,,46.987893,8.725992,816,,,0,,,,,,,
8530820,,Oberberg St. Karl,,46.999977,8.720141,1180,,,0,,,,,,,
8530824,,Belalp Bruchegg,,46.376641,7.977583,2154,,,0,,,,,,,
8530825,,Belalp Hohbiel,,46.397754,7.977506,2681,,,0,,,,,,,
8530839,,Klingenstock,,46.956930,8.675939,1346,,,0,,,,,,,
8530840,,Stoos (Klingenstockbahn),,46.973542,8.671275,1928,,,0,,,,,,,
8530841,,Tannenboden (Sesselbahn Chrüz),,47.092370,9.279955,1385,,,0,,,,,,,
8530842,,Chrüz (Flumserberg),,47.082991,9.270018,1639,,,0,,,,,,,
8530853,,Bürglen UR Brügg (Ruogigbahn),,46.877990,8.680605,647,,,0,,,,,,,
8530855,,Ruogig,,46.902851,8.687702,1726,,,0,,,,,,,
8530859,,La Vouarda,,46.150546,7.595181,2693,,,0,,,,,,,
8530860,,Adelboden Bergläger (Höchsth.),,46.468267,7.533406,1486,,,0,,,,,,,
8530861,,Höchsthorn,,46.468327,7.547337,1882,,,0,,,,,,,
8530862,,Plan du Fou,,46.140080,7.294488,2441,,,0,,,,,,,
8588691,,Gandegg,,46.425507,7.758229,2717,,,0,,,,,,,
8588692,,Hockenhorngrat,,46.429871,7.748146,3111,,,0,,,,,,,
8588693,,Stafel (Lötschen),,46.414591,7.769116,2103,,,0,,,,,,,
8595499,,Rickenbach SZ (Rotenfluebahn),,47.014836,8.669487,610,,,0,,,,,,,
8595500,,Rotenflue (Mythenregion),,47.020840,8.703065,1568,,,0,,,,,,,
8500089,,Wasserfallen,,47.373651,7.699990,928,,,0,,,,,,,
8500097,,Reigoldswil LRW,,47.390199,7.696283,512,,,0,,,,,,,
8500252,WESS,Weissenstein,,47.251843,7.508324,1280,,,0,,,,,,,
8501335,,Stalden LSG,,46.231789,7.870815,803,,,0,,,,,,,
8501336,,Plattjen,,46.090670,7.943163,2573,,,0,,,,,,,
8501337,,Felskinn,,46.068883,7.916119,2983,,,0,,,,,,,
8501339,,Rinderhütte,,46.368982,7.648490,2310,,,0,,,,,,,
8501354,,Glacier-des-Diablerets,,46.326804,7.204664,2944,,,0,,,,,,,
8501355,,Reusch,,46.365392,7.235592,1350,,,0,,,,,,,
8501358,,La Videmanette,,46.459976,7.204737,2158,,,0,,,,,,,
8501373,,La Montagnette (La Braye),,46.447857,7.145822,1630,,,0,,,,,,,
8501441,,Chalais CBV,,46.267717,7.511879,559,,,0,,,,,,,
8501442,,Eggishorn,,46.427092,8.093413,2878,,,0,,,,,,,
8501443,,Fiescheralp,,46.413162,8.103442,2203,,,0,,,,,,,
8501444,,Hannigalp (Grächen),,46.206462,7.867155,2120,,,0,,,,,,,
8501450,,Croix-de-Culet,,46.175205,6.845810,1923,,,0,,,,,,,
8501451,,Champéry TCP,,46.174886,6.871155,1036,,,0,,,,,,,
8501467,,Leysin TLSA,,46.347545,7.017424,1310,,,0,,,,,,,
8501486,,Berneuse (Leysin),,46.359535,7.002883,2033,,,0,,,,,,,
8501555,,Isenau,,46.363370,7.183338,1766,,,0,,,,,,,
8501556,,La Creusaz,,46.118434,6.994375,1775,,,0,,,,,,,
8501583,,Ried-Mörel,,46.360226,8.034604,1185,,,0,,,,,,,
8501584,,Isérables,,46.164328,7.243984,1116,,,0,,,,,,,
8501643,,Leukerbad LLG,,46.383586,7.625421,1427,,,0,,,,,,,
8501644,,Leukerbad LLAT,,46.373909,7.629118,1391,,,0,,,,,,,
8501645,,Raron (Talstation Unterbäch),,46.303252,7.801150,640,,,0,,,,,,,
8501646,,Fiesch FE,,46.405109,8.136713,1072,,,0,,,,,,,
8501647,,Saas-Fee (Spielboden/Platt),,46.102385,7.926188,1806,,,0,,,,,,,
8501657,,Gemmipass,,46.397994,7.616278,2348,,,0,,,,,,,
8501659,UTB,Unterbäch (Bergstation),,46.284866,7.800716,1228,,,0,,,,,,,
8501695,,Längfluh,,46.084755,7.895806,2872,,,0,,,,,,,
8501696,,Spielboden,,46.091989,7.899680,2455,,,0,,,,,,,
8501698,RIRA,Riederalp Mitte,,46.377991,8.033213,1943,,,0,,,,,,,
8501719,,Gspon,,46.225170,7.902038,1899,,,0,,,,,,,
8501720,,Staldenried,,46.229252,7.884846,1152,,,0,,,,,,,
8501953,,Belalp,,46.371698,7.974558,2096,,,0,,,,,,,
8501954,BETA,Bettmeralp,,46.386108,8.057937,1909,,,0,,,,,,,
8501955,,Betten Dorf,,46.375104,8.068066,1197,,,0,,,,,,,
8503081,,Felsenegg,,47.310140,8.507416,810,,,0,,,,,,,
8503082,,Adliswil (Luftseilbahnstation),,47.313170,8.520055,452,,,0,,,,,,,
8503250,,Seebli LWS,,47.011236,8.790317,1473,,,0,,,,,,,
8503265,,Hochstuckli,,47.057920,8.666856,1493,,,0,,,,,,,
8503268,,Grotzenbüel (Hüttenberg),,46.948904,8.994172,1555,,,0,,,,,,,
8503269,,Kleiner Gumen,,46.955997,8.984601,1904,,,0,,,,,,,
8503611,,Braunwald Leglerberg,,46.938503,8.986843,1280,,,0,,,,,,,
8503645,,Hüttenberg,,46.938987,8.991008,1304,,,0,,,,,,,
8504748,,Le Moléson,,46.547290,7.018486,1978,,,0,,,,,,,
8504749,,Plan-Francey,,46.555720,7.023728,1519,,,0,,,,,,,
8505078,,Rigi Scheidegg,,47.027557,8.522218,1648,,,0,,,,,,,
8505088,,Seebodenalp,,47.069411,8.465935,1029,,,0,,,,,,,
8505089,,Morschach Talstat. (Luftseilb),,46.990219,8.638382,645,,,0,,,,,,,
8505190,,Gemsstock,,46.602221,8.611722,2955,,,0,,,,,,,
8505191,,Gurschen,,46.618407,8.598363,2203,,,0,,,,,,,
8505192,,Andermatt (Gemsstockbahn),,46.632536,8.591784,1440,,,0,,,,,,,
8505595,,Costa (Funivia),,46.176968,8.688084,459,,,0,,,,,,,
8505598,,Rasa,,46.156650,8.654644,892,,,0,,,,,,,
8506251,,Iltios,,47.185437,9.312326,1335,,,0,,,,,,,
8506257,,Wasserauen (Ebenalpbahn),,47.286649,9.428617,872,,,0,,,,,,,
8506259,,Ebenalp,,47.284675,9.411579,1596,,,0,,,,,,,
8506261,,Brülisau (Kastenbahn),,47.296498,9.456784,925,,,0,,,,,,,
8506262,,Hoher Kasten,,47.283756,9.484942,1791,,,0,,,,,,,
8506265,,Kronberg,,47.291520,9.327926,1655,,,0,,,,,,,
8506266,,Jakobsbad (Kronbergbahn),,47.319917,9.328337,876,,,0,,,,,,,
8506268,SCHP,Schwägalp (Säntis-Schwebebahn),,47.256409,9.317684,1384,,,0,,,,,,,
8506269,,Säntis,,47.249330,9.342276,2483,,,0,,,,,,,
8506274,,Chäserrugg,,47.155240,9.312456,2270,,,0,,,,,,,
8507192,BEBG,Beatenberg,,46.690598,7.765285,1119,,,0,,,,,,,
8507194,,Beatenberg Vorsass,,46.700533,7.770222,1540,,,0,,,,,,,
8507195,,Niederhorn,,46.710557,7.775162,1935,,,0,,,,,,,
8507258,,Erlenbach i.S. (Stockhornbahn),,46.660142,7.545355,734,,,0,,,Erlenbach im Simmental (Stockhornbahn),,,,
8507259,,Chrindi,,46.683740,7.542317,1632,,,0,,,,,,,
8507260,,Stockhorn,,46.693494,7.538374,2146,,,0,,,,,,,
8507261,,Sunnbüel,,46.457963,7.650447,1936,,,0,,,,,,,
8507262,,Kandersteg LKS,,46.476667,7.663567,1205,,,0,,,,,,,
8507350,,Grindelwald BGF,,46.625116,8.041792,1067,,,0,,,,,,,
8507354,,First (Grindelwald),,46.659865,8.053821,2169,,,0,,,,,,,
8507356,,Wengen Wengiboden,,46.606303,7.921577,1282,,,0,,,,,,,
8507357,,Männlichen LWM,,46.613083,7.940983,2201,,,0,,,,,,,
8507370,,Grindelwald Grund GGM,,46.624686,8.019003,957,,,0,,,,,,,
8507371,,Männlichen GGM,,46.611060,7.942792,2223,,,0,,,,,,,
8507377,LBLM,Lauterbrunnen BLM,,46.598402,7.907150,797,,,0,,,,,,,
8507378,GALP,Grütschalp,,46.596516,7.890874,1481,,,0,,,,,,,
8507452,,Rinderberg,,46.508487,7.358162,2011,,,0,,,,,,,
8507453,STEB,Stechelberg (Schilthornbahn),,46.555155,7.901717,922,,,0,,,,,,,
8507454,GIM,Gimmelwald (Schilthornbahn),,46.547137,7.893487,1367,,,0,,,,,,,
8507455,,Mürren (Schilthornbahn),,46.557724,7.891280,1639,,,0,,,,,,,
8507456,,Birg (Schilthornbahn),,46.561829,7.857797,2685,,,0,,,,,,,
8507457,SCHR,Schilthorn,,46.557259,7.835254,2967,,,0,,,,,,,
8507460,,Lauchernalp,,46.410978,7.774218,1963,,,0,,,,,,,
8507500,,Wiler (Lötschen) (Talstation),,46.401819,7.777777,1411,,,0,,,,,,,
8507593,,Oeschinen,,46.502054,7.697048,1688,,,0,,,,,,,
8507594,,Kandersteg GKO,,46.497480,7.682684,1203,,,0,,,,,,,
8508354,,Sörenberg-Schönenboden,,46.807580,8.059660,1248,,,0,,,,,,,
8508355,,Brienzer Rothorn LSBR,,46.787214,8.044404,2266,,,0,,,,,,,
8508356,,Stöckalp SMF-lsm,,46.802148,8.278989,1081,,,0,,,,,,,
8508357,MEF,Melchsee-Frutt,,46.774545,8.268398,1910,,,0,,,,,,,
8508366,,Trübsee,,46.793897,8.399027,1793,,,0,,,,,,,
8508368,,Ristis (Bergstation),,46.832080,8.407140,1605,,,0,,,,,,,
8508380,,Käserstatt,,46.757684,8.218935,1827,,,0,,,,,,,
8508453,,Kriens PB,,47.030423,8.277880,492,,,0,,,,,,,
8508455,FRM,Fräkmüntegg,,46.990674,8.251242,1415,,,0,,,,,,,
8508456,PIL,Pilatus Kulm,,46.979432,8.255948,2070,,,0,,,,,,,
8508493,,Kleintitlis,,46.770682,8.422915,3033,,,0,,,,Titlis,,,
8508494,,Stand,,46.782515,8.417329,2421,,,0,,,,,,,
8508495,,Stockhütte,,46.945224,8.505202,1280,,,0,,,,,,,
8508496,,Klewenalp,,46.940392,8.472966,1600,,,0,,,,,,,
8508497,,Niederrickenbach Dorf,,46.929733,8.426969,1156,,,0,,,,,,,
8508500,,Beckenried BBE,,46.966343,8.473216,436,,,0,,,,,,,
8508501,,Engelberg (Talstation Titlis),,46.816038,8.395609,1000,,,0,,,,,,,
8508502,,Engelberg (Brunni-Bahnen),,46.818912,8.415409,1002,,,0,,,,,,,
8508551,,Wirzweli,,46.913959,8.367209,1228,,,0,,,,,,,
8508552,,Dallenwil LDW,,46.925195,8.386968,486,,,0,,,,,,,
8509080,,Klosters DKB,,46.868962,9.880439,1191,,,0,,,,,,,
8509081,,Gotschnaboden,,46.861994,9.858132,1769,,,0,,,,,,,
8509082,,Gotschnagrat (Klosters),,46.859015,9.847883,2281,,,0,,,,,,,
8509085,,Weissfluhjoch DKB,,46.832905,9.805787,2662,,,0,,,,,,,
8509087,,Weissfluhgipfel,,46.834284,9.796131,2823,,,0,,,,,,,
8509090,,Davos Platz DKB,,46.791196,9.823334,1540,,,0,,,,,,,
8509091,,Ischalp,,46.786749,9.832426,1937,,,0,,,,,,,
8509093,,Jakobshorn,,46.772457,9.848283,2558,,,0,,,,,,,
8509096,,Jatzmeder,,46.744208,9.802652,2060,,,0,,,,,,,
8509099,,Brambrüesch BCD,,46.829059,9.516310,1595,,,0,,,,,,,
8509158,,Arosa (Talstation) Hörnli,,46.772657,9.659676,1739,,,0,,,,,,,
8509159,,Hörnligrat,,46.767158,9.620958,2500,,,0,,,,,,,
8509160,,Arosa (Talstation) Weisshorn,,46.783590,9.678598,1739,,,0,,,,,,,
8509162,,Weisshorn,,46.789280,9.639123,2646,,,0,,,,,,,
8509164,,Flims Dorf BFL,,46.834051,9.281398,1050,,,0,,,,,,,
8509273,,Corviglia LCPN,,46.508007,9.818434,2486,,,0,,,,,,,
8509274,,Piz Nair,,46.505452,9.787692,3030,,,0,,,,,,,
8509277,,Marguns (Val Saluver),,46.516731,9.825115,2280,,,0,,,,,,,
8509280,,Scuol PSFS,,46.795304,10.289166,1287,,,0,,,,,,,
8509281,,Motta Naluns,,46.810868,10.272526,2144,,,0,,,,,,,
8509282,,Arosa (Mittelstation)Weisshorn,,46.786402,9.663151,2032,,,0,,,,,,,
8509371,,Bernina Diavolezza LBD,,46.440984,9.983528,2082,,,0,,,,,,,
8509372,,Diavolezza,,46.412406,9.965466,2984,,,0,,,,,,,
8509375,,Curtinatsch,,46.436716,9.994784,2117,,,0,,,,,,,
8509376,,Piz Lagalb,,46.429908,10.021954,2902,,,0,,,,,,,
8509380,,Surlej LSC,,46.454812,9.814015,1877,,,0,,,,,,,
8509381,,Murtèl,,46.432458,9.823787,2693,,,0,,,,,,,
8509382,,Corvatsch,,46.418018,9.821408,3305,,,0,,,,,,,
8509383,,Signal SMBB,,46.494213,9.822585,2139,,,0,,,,,,,
8509440,,Pizolhütte,,46.979218,9.417035,2221,,,0,,,,,,,
8509450,,Unterterzen LUFAG,,47.113342,9.255108,426,,,0,,,,,,,
8509451,,Oberterzen,,47.102791,9.257201,659,,,0,,,,,,,
8509679,,Rhäzüns LRF,,46.795829,9.401796,658,,,0,,,,,,,
8509680,FEVE,Feldis/Veulden,,46.795119,9.429822,1472,,,0,,,,,,,
8509681,,Lenzerheide/Lai LHB,,46.740290,9.556857,1476,,,0,,,,,,,
8509682,,Scharmoin,,46.742840,9.573071,1902,,,0,,,,,,,
8509683,,Parpaner Rothorn,,46.742554,9.597356,2865,,,0,,,,,,,
